City,Lat,Lng,Max Temp,Humidity,Cloudiness,Wind Speed,Country,Date
Bolshaya Martynovka,47.271,41.6679,2.01,99,100,4.18,RU,1637688917
Dikson,73.5069,80.5464,-18.47,97,100,6.7,RU,1637688917
Kirakira,-10.4544,161.9205,26.47,82,99,3.86,SB,1637688918
Tiksi,71.6872,128.8694,-29.43,98,83,3.01,RU,1637688647
Sri Aman,1.2376,111.4621,25.05,94,100,0.0,MY,1637688918
Saint-Augustin,51.226,-58.6502,5.18,90,100,10.09,CA,1637688918
Rikitea,-23.1203,-134.9692,24.61,81,3,6.45,PF,1637688919
Lebu,-37.6167,-73.65,16.35,68,0,7.55,CL,1637688919
Poum,-20.2333,164.0167,24.52,82,100,0.69,NC,1637688920
Bandar-e Lengeh,26.5579,54.8807,26.06,73,3,2.06,IR,1637688920
Iwanai,42.9744,140.5089,0.32,81,98,8.91,JP,1637688920
Luwuk,-0.9516,122.7875,25.36,82,46,1.34,ID,1637688921
eMkhomazi,-30.2067,30.7978,19.82,70,88,9.62,ZA,1637688921
Arraial do Cabo,-22.9661,-42.0278,28.98,65,0,6.17,BR,1637688922
Kloulklubed,7.0419,134.2556,25.28,75,84,6.81,PW,1637688922
Thompson,55.7435,-97.8558,-16.91,78,90,2.57,CA,1637688906
Puerto Ayora,-0.7393,-90.3518,24.98,71,17,4.54,EC,1637688923
Rawson,-43.3002,-65.1023,26.7,30,94,14.41,AR,1637688792
East London,-33.0153,27.9116,17.52,67,0,9.26,ZA,1637688923
Fes,34.0372,-4.9998,12.14,100,75,3.09,MA,1637688924
Thunder Bay,48.4001,-89.3168,1.98,84,75,0.0,CA,1637688664
Saskylakh,71.9167,114.0833,-32.27,96,11,4.72,RU,1637688924
Hermanus,-34.4187,19.2345,18.78,74,59,5.01,ZA,1637688925
Port Alfred,-33.5906,26.891,16.76,70,66,8.97,ZA,1637688925
Iqaluit,63.7506,-68.5145,-0.15,93,75,10.28,CA,1637688695
Henties Bay,-22.116,14.2845,14.92,90,6,2.52,NA,1637688926
Lüderitz,-26.6481,15.1594,19.03,70,4,10.48,NA,1637688926
Mataura,-46.1927,168.8643,7.69,95,90,1.14,NZ,1637688926
Nemuro,43.3236,145.575,4.13,66,84,4.65,JP,1637688927
Cape Town,-33.9258,18.4232,19.23,63,20,10.8,ZA,1637688747
Tabuk,17.4189,121.4443,22.72,92,49,2.23,PH,1637688927
Port Elizabeth,-33.918,25.5701,17.28,67,20,4.63,ZA,1637688928
Severo-Kuril'sk,50.6789,156.125,2.9,97,100,11.96,RU,1637688928
Punta Arenas,-53.15,-70.9167,12.06,62,40,11.32,CL,1637688687
Cherskiy,68.75,161.3,-36.5,100,34,2.08,RU,1637688929
Ushuaia,-54.8,-68.3,6.81,61,90,2.57,AR,1637688740
Faanui,-16.4833,-151.75,26.78,72,100,1.57,PF,1637688929
Hasaki,35.7333,140.8333,4.16,62,5,4.4,JP,1637688930
Carnarvon,-24.8667,113.6333,21.04,83,0,6.17,AU,1637688930
Atuona,-9.8,-139.0333,25.13,80,69,6.16,PF,1637688930
Nikolskoye,59.7035,30.7861,-1.45,83,31,2.5,RU,1637688931
Barrow,71.2906,-156.7887,-16.99,71,90,2.57,US,1637688931
Sinnamary,5.3833,-52.95,28.51,72,100,3.92,GF,1637688932
Mahébourg,-20.4081,57.7,25.16,73,40,2.06,MU,1637688932
Yatou,37.15,122.3833,1.84,50,1,3.97,CN,1637688932
Albany,42.6001,-73.9662,3.35,51,6,1.79,US,1637688933
Vaini,-21.2,-175.2,21.09,100,40,0.0,TO,1637688933
Kavaratti,10.5669,72.642,27.73,76,48,5.57,IN,1637688934
Mar del Plata,-38.0023,-57.5575,17.01,77,0,8.05,AR,1637688887
Chokurdakh,70.6333,147.9167,-31.35,99,73,2.73,RU,1637688934
Isangel,-19.55,169.2667,25.01,87,100,3.2,VU,1637688849
Caravelas,-17.7125,-39.2481,26.06,69,85,2.71,BR,1637688936
Naze,28.3667,129.4833,14.69,65,51,5.99,JP,1637688936
Kaitangata,-46.2817,169.8464,8.4,92,62,2.72,NZ,1637688937
Vardø,70.3705,31.1107,-4.89,80,75,1.54,NO,1637688937
Zhengjiatun,43.5064,123.5064,-12.85,81,1,3.92,CN,1637688938
Cabo San Lucas,22.8909,-109.9124,28.06,65,1,3.13,MX,1637688938
Bow Island,49.8668,-111.3684,4.59,58,88,0.0,CA,1637688939
Adrar,20.5022,-10.0711,28.83,25,87,2.48,MR,1637688939
Torbay,47.6666,-52.7314,5.32,85,90,11.32,CA,1637688930
Narsaq,60.9167,-46.05,-5.88,64,91,2.82,GL,1637688940
Bluff,-46.6,168.3333,11.32,81,66,5.32,NZ,1637688940
Yellowknife,62.456,-114.3525,-26.44,95,75,2.24,CA,1637688940
Mehamn,71.0357,27.8492,-3.9,63,0,8.23,NO,1637688941
Qaanaaq,77.484,-69.3632,-21.28,70,93,4.31,GL,1637688941
Kavieng,-2.5744,150.7967,28.22,77,99,7.22,PG,1637688942
Busselton,-33.65,115.3333,12.27,82,0,4.06,AU,1637688942
Hithadhoo,-0.6,73.0833,27.98,75,100,8.03,MV,1637688942
Belmonte,-15.8631,-38.8828,26.28,74,79,3.88,BR,1637688943
Saint Paul Harbor,57.79,-152.4072,-12.27,56,1,2.57,US,1637688943
Pala,9.3642,14.9046,28.37,20,23,2.2,TD,1637688944
Hobart,-42.8794,147.3294,15.92,84,100,0.45,AU,1637688944
Muros,42.7762,-9.0603,12.27,69,45,7.88,ES,1637688944
Hergla,36.0303,10.509,19.33,67,20,3.09,TN,1637688945
Vestmanna,62.1564,-7.1664,7.51,93,90,8.75,FO,1637688945
Chimoio,-19.1164,33.4833,24.19,69,100,2.58,MZ,1637688828
Langcangan,8.4794,123.7558,23.67,95,100,0.37,PH,1637688946
Ribeira Grande,38.5167,-28.7,20.22,94,20,6.17,PT,1637688946
Castro,-24.7911,-50.0119,29.11,34,9,2.07,BR,1637688946
Yoichi,43.2039,140.7703,2.1,75,80,9.99,JP,1637688947
Skierniewice,51.9548,20.1584,4.86,90,100,4.57,PL,1637688947
Tasiilaq,65.6145,-37.6368,-3.91,61,64,3.54,GL,1637688948
Flinders,-34.5833,150.8552,19.0,88,100,0.45,AU,1637688948
Bambous Virieux,-20.3428,57.7575,25.14,73,40,2.06,MU,1637688948
Bonavista,48.6499,-53.1147,5.62,81,99,12.36,CA,1637688949
Singarāyakonda,15.25,80.0333,26.39,81,40,2.35,IN,1637688949
Khatanga,71.9667,102.5,-17.31,80,100,8.37,RU,1637688950
Tuktoyaktuk,69.4541,-133.0374,-18.0,85,90,4.63,CA,1637688950
Bukachacha,52.9833,116.9167,-20.5,85,4,1.65,RU,1637688950
Leningradskiy,69.3833,178.4167,-25.28,82,68,2.13,RU,1637688951
Fortuna,40.5982,-124.1573,11.29,93,1,2.24,US,1637688951
Saint George,37.1041,-113.5841,17.42,39,1,0.0,US,1637688952
Lichinga,-13.3128,35.2406,22.93,44,24,1.0,MZ,1637688952
Brigantine,39.4101,-74.3646,6.86,47,1,6.69,US,1637688952
Butaritari,3.0707,172.7902,27.61,76,52,7.72,KI,1637688953
Solnechnyy,50.7214,136.6319,-11.37,96,100,3.05,RU,1637688953
Sola,-13.8833,167.55,26.74,77,100,4.0,VU,1637688954
Kyshtovka,56.555,76.6271,-5.98,91,99,6.04,RU,1637688954
Deputatsky,69.3,139.9,-32.15,98,55,1.22,RU,1637688954
Bredasdorp,-34.5322,20.0403,18.49,69,58,2.62,ZA,1637688955
Papetoai,-17.4961,-149.8729,28.77,76,91,0.75,PF,1637688955
Hambantota,6.1241,81.1185,25.71,85,100,1.87,LK,1637688956
Takoradze,4.8845,-1.7554,27.13,78,16,3.6,GH,1637688956
Livingston,55.9029,-3.5226,8.6,88,40,5.66,GB,1637688958
Ahipara,-35.1667,173.1667,15.4,85,89,2.06,NZ,1637688958
Manbij,36.5281,37.9549,11.43,54,54,2.94,SY,1637688958
Alofi,-19.0595,-169.9187,18.94,100,72,0.0,NU,1637688959
Hilo,19.7297,-155.09,23.68,78,40,3.6,US,1637688959
Mandalgovi,45.7625,106.2708,-5.25,37,9,4.76,MN,1637688959
Lata,40.1629,-8.3327,12.67,81,98,1.92,PT,1637688960
Acapulco de Juárez,16.8634,-99.8901,27.9,78,40,2.06,MX,1637688251
Mt. Pleasant,32.7941,-79.8626,11.16,33,1,1.79,US,1637688960
Tomatlán,19.9333,-105.25,31.23,45,47,1.28,MX,1637688961
Umm Kaddadah,13.6017,26.6876,24.01,16,75,6.16,SD,1637688961
Sitka,57.0531,-135.33,1.94,93,90,2.06,US,1637688962
Bereda,43.2686,-7.5406,9.45,98,100,3.75,ES,1637688962
Nicoya,10.1483,-85.452,28.75,60,100,5.87,CR,1637688962
Chui,-33.6971,-53.4616,19.53,46,0,5.63,UY,1637688963
Egvekinot,66.3167,-179.1667,-19.51,65,6,3.59,RU,1637688963
New Norfolk,-42.7826,147.0587,15.72,72,100,1.11,AU,1637688964
Vestmannaeyjar,63.4427,-20.2734,2.55,80,20,4.63,IS,1637688964
Point Pedro,9.8167,80.2333,26.89,85,100,6.0,LK,1637688964
Nanortalik,60.1432,-45.2371,-1.48,50,82,2.44,GL,1637688965
Ponta do Sol,32.6667,-17.1,21.74,73,97,1.31,PT,1637688965
La Cumbre,-30.982,-64.4914,24.88,44,76,3.58,AR,1637688966
Saginaw,43.3334,-84.0333,2.08,44,1,4.12,US,1637688966
Huaidian,33.4333,115.0333,5.22,49,0,3.78,CN,1637688966
Homer,59.6425,-151.5483,-8.07,57,90,2.57,US,1637688967
Bougouni,11.417,-7.479,30.12,17,0,1.84,ML,1637688967
Maïné Soroa,13.2114,12.0241,28.96,17,96,4.25,NE,1637688967
Jamestown,42.097,-79.2353,0.95,95,90,2.24,US,1637688759
Bucerías,20.75,-105.3333,26.99,61,1,0.0,MX,1637688937
Kiryat Gat,31.61,34.7642,18.78,100,1,1.68,IL,1637688842
Muroto-misakicho,33.2833,134.15,11.68,66,44,8.62,JP,1637688969
Saint-Philippe,-21.3585,55.7679,24.77,76,61,3.49,RE,1637688969
Labuhan,-6.8844,112.2051,24.77,93,100,6.22,ID,1637688969
Touros,-5.1989,-35.4608,30.5,64,61,6.87,BR,1637688970
Valdemārpils,57.3707,22.5919,4.68,88,87,2.49,LV,1637688970
Basco,20.4487,121.9702,25.11,77,100,12.82,PH,1637688970
Watertown,42.3709,-71.1828,5.01,45,1,1.79,US,1637688671
George Town,5.4112,100.3354,25.96,93,40,0.45,MY,1637688971
Vanimo,-2.6741,141.3028,25.65,88,99,1.92,PG,1637688972
Itigi,-5.7,34.4833,25.33,37,67,1.8,TZ,1637688972
Kuala Kedah,6.1,100.3,25.99,100,40,1.03,MY,1637688972
Katsuura,35.1333,140.3,12.33,62,2,13.82,JP,1637688973
Bethel,41.3712,-73.414,5.5,51,20,0.89,US,1637688973
Balabac,7.9868,117.0645,28.14,80,76,5.4,PH,1637688974
Lompoc,34.6391,-120.4579,25.07,46,1,5.36,US,1637688899
Ayan,56.45,138.1667,-4.17,81,100,16.89,RU,1637688974
Dingle,10.9995,122.6711,24.29,92,100,3.63,PH,1637688975
Zaozyornoye,45.1582,33.2787,7.19,75,99,5.6,UA,1637688975
Kayerkan,69.3497,87.7602,-9.91,82,100,6.16,RU,1637688975
Coruripe,-10.1256,-36.1756,29.51,62,73,6.99,BR,1637688615
Provideniya,64.3833,-173.3,-12.44,66,3,3.91,RU,1637688976
Buala,-8.145,159.5921,26.58,83,51,3.59,SB,1637688977
Kapaa,22.0752,-159.319,25.18,82,90,0.45,US,1637688945
Hofn,64.2539,-15.2082,1.74,92,83,3.09,IS,1637688978
Vila Velha,-20.3297,-40.2925,28.97,72,20,1.79,BR,1637688979
Port Augusta,-32.5,137.7667,19.28,77,100,5.11,AU,1637688979
Soe,-9.8607,124.284,20.11,90,69,0.91,ID,1637688980
Verkhoyansk,67.5447,133.385,-34.72,98,98,0.69,RU,1637688980
Baker City,44.7749,-117.8344,1.47,100,90,1.54,US,1637688981
Cabedelo,-6.9811,-34.8339,32.37,67,99,4.9,BR,1637688981
Cuamba,-14.8031,36.5372,29.61,33,48,0.88,MZ,1637688981
Virtsu,58.5716,23.5115,2.27,76,85,4.77,EE,1637688982
Ţaga,46.95,24.05,2.39,71,17,3.81,RO,1637688982
Banes,20.9625,-75.7186,30.34,57,3,4.57,CU,1637688983
Dunedin,-45.8742,170.5036,9.36,85,24,2.45,NZ,1637688747
Harper,4.375,-7.7169,27.18,80,40,3.31,LR,1637688983
Mount Isa,-20.7333,139.5,26.87,29,90,2.06,AU,1637688984
Udachny,66.4167,112.4,-32.93,100,43,3.27,RU,1637688984
Mercedes,-34.6515,-59.4307,28.81,8,0,4.48,AR,1637688984
Aklavik,68.2191,-135.0107,-22.54,77,40,2.57,CA,1637688985
Iquitos,-3.7481,-73.2472,31.02,70,75,3.09,PE,1637688888
Ciudad de Armería,18.9333,-103.9667,30.61,57,8,2.58,MX,1637688985
New Glasgow,45.5834,-62.6486,6.73,96,100,7.16,CA,1637688986
Almaznyy,48.0448,40.045,1.08,96,100,1.32,RU,1637688986
Avarua,-21.2078,-159.775,23.03,73,100,2.57,CK,1637688987
Cap Malheureux,-19.9842,57.6142,25.27,83,42,0.45,MU,1637688987
Cravo Norte,6.3017,-70.2041,31.16,57,92,2.08,CO,1637688987
Viedma,-40.8135,-62.9967,29.68,18,58,10.27,AR,1637688988
Lityn,49.3251,28.0809,0.18,89,99,5.95,UA,1637688988
Pochutla,15.7432,-96.4661,32.12,47,0,3.71,MX,1637688988
Cortez,37.3489,-108.5859,10.23,20,100,2.35,US,1637688989
Ruhengeri,-1.4998,29.635,14.43,92,76,0.31,RW,1637688989
Ust'-Omchug,61.15,149.6333,-32.52,99,43,0.9,RU,1637688990
Nguruka,-5.1092,31.0419,20.26,84,77,1.9,TZ,1637688990
Yerbogachën,61.2767,108.0108,-13.62,96,100,2.76,RU,1637688991
La Santisima Trinidad,-14.8333,-64.9,31.99,66,40,5.14,BO,1637688991
Mkokotoni,-5.8767,39.2547,26.87,81,82,4.81,TZ,1637688991
Gravdal,68.1214,13.5031,1.82,70,100,7.25,NO,1637688992
São Gabriel da Cachoeira,-0.1303,-67.0892,30.89,74,40,2.06,BR,1637688992
North Bend,43.4065,-124.2243,10.95,91,90,5.14,US,1637688993
Kudahuvadhoo,2.6708,72.8944,27.58,75,96,7.5,MV,1637688993
Ambon City,-3.6954,128.1814,27.83,69,40,0.47,ID,1637688993
Norman Wells,65.282,-126.8329,-28.98,69,75,1.54,CA,1637688994
Pontal do Paraná,-25.6533,-48.5128,39.29,58,1,2.23,BR,1637688994
Alice Springs,-23.7,133.8833,18.75,100,40,4.63,AU,1637688945
Zacualpan,21.25,-105.1667,30.79,56,19,2.62,MX,1637688995
Pangnirtung,66.1451,-65.7125,-1.0,64,75,12.86,CA,1637688995
Batagay,67.6333,134.6333,-33.22,98,93,0.69,RU,1637688995
Mayo,38.8876,-76.5119,7.51,45,20,5.81,US,1637688996
Cidreira,-30.1811,-50.2056,22.1,57,28,7.29,BR,1637688996
Puebloviejo,10.9938,-74.2844,31.1,74,75,2.06,CO,1637688997
Te Anau,-45.4167,167.7167,6.82,96,43,0.54,NZ,1637688997
Örnsköldsvik,63.2909,18.7153,1.53,100,0,3.09,SE,1637688997
Caldwell,43.6629,-116.6874,5.18,94,90,4.12,US,1637688998
Harihar,14.5167,75.8,23.1,82,18,2.27,IN,1637688999
Halifax,44.6453,-63.5724,5.03,95,90,3.58,CA,1637688711
Faya,18.3851,42.4509,16.06,42,23,2.15,SA,1637689000
Ketchikan,55.3422,-131.6461,2.26,100,90,2.06,US,1637688947
Hong Kong,22.2855,114.1577,17.96,61,42,0.45,HK,1637688854
Los Llanos de Aridane,28.6585,-17.9182,19.86,88,20,0.45,ES,1637689000
Longyearbyen,78.2186,15.6401,-15.09,78,20,5.14,SJ,1637689001
Lagoa,39.05,-27.9833,18.79,87,48,7.97,PT,1637689001
Rūdbār,30.15,62.6,17.64,20,1,1.6,AF,1637689002
Kurunegala,7.4863,80.3623,24.05,90,100,1.68,LK,1637689002
Lufilufi,-13.8745,-171.5986,21.88,73,30,3.49,WS,1637689003
Bengkulu,-3.8004,102.2655,23.87,89,100,2.3,ID,1637689003
Zhangye,38.9342,100.4517,-2.0,27,1,1.81,CN,1637689003
Tuatapere,-46.1333,167.6833,8.44,92,90,1.42,NZ,1637689004
Camacha,33.0833,-16.3333,19.42,77,20,4.63,PT,1637689004
Yar-Sale,66.8333,70.8333,-11.38,96,100,3.26,RU,1637689005
Buraidah,26.326,43.975,19.25,43,1,5.2,SA,1637689005
Doha,25.2867,51.5333,26.17,71,0,6.17,QA,1637689005
Moshenskoye,58.5102,34.5911,-6.13,78,95,3.25,RU,1637689006
Dawei,14.0833,98.2,24.48,88,97,3.84,MM,1637689006
Asău,46.4333,26.4,1.53,94,99,0.76,RO,1637689007
Upernavik,72.7868,-56.1549,-17.45,69,15,3.17,GL,1637689007
Izumo,35.3667,132.7667,8.97,59,100,10.73,JP,1637689008
Paciran,-6.8767,112.3761,24.64,93,100,6.81,ID,1637689008
Svetlaya,46.5389,138.3297,-7.04,64,90,5.26,RU,1637689008
Valdosta,30.8327,-83.2785,13.84,27,1,5.66,US,1637689009
Tagusao,9.1924,117.8141,26.4,83,88,1.75,PH,1637689009
Zhigansk,66.7697,123.3711,-38.31,100,92,1.72,RU,1637689010
Bintulu,3.1667,113.0333,24.23,100,40,0.0,MY,1637689010
Temyasovo,52.9933,58.1014,-7.8,96,100,4.38,RU,1637689011
Yulara,-25.2406,130.9889,19.91,68,75,4.63,AU,1637689011
Tsumeb,-19.2333,17.7167,29.75,12,13,3.96,NA,1637689012
Bandarbeyla,9.4942,50.8122,26.84,71,100,7.21,SO,1637689012
Ayagoz,47.9714,80.4392,-0.13,86,100,8.27,KZ,1637689012
Ajdabiya,30.7554,20.2263,21.86,33,37,3.04,LY,1637689013
Haines Junction,60.7522,-137.5108,-22.03,84,100,0.51,CA,1637689013
Ibotirama,-12.1853,-43.2206,26.0,70,100,1.65,BR,1637689014
Kindu,-2.95,25.95,22.41,97,80,1.17,CD,1637689014
Eucaliptus,-17.5833,-67.5167,19.83,32,97,6.53,BO,1637689014
Russell,32.3502,-85.1999,12.22,21,1,1.54,US,1637689015
Rio Grande,-32.035,-52.0986,25.06,53,1,6.61,BR,1637689015
Evensk,61.95,159.2333,-11.98,72,100,5.16,RU,1637689016
Emerald,-23.5333,148.1667,22.77,72,97,3.6,AU,1637689016
Tupik,54.4253,119.9327,-19.68,88,91,1.64,RU,1637689016
Palmer,42.1584,-72.3287,4.78,35,20,1.34,US,1637689017
Chanderi,24.7167,78.1333,17.99,27,2,1.46,IN,1637689017
Begunitsy,59.5855,29.3176,-2.84,90,34,2.24,RU,1637689018
Vila Franca do Campo,37.7167,-25.4333,19.0,88,100,6.62,PT,1637689018
Baturaja,-4.1333,104.1667,22.89,94,100,0.87,ID,1637689018
Hamilton,39.1834,-84.5333,5.36,48,1,0.45,US,1637688352
Bay Roberts,47.5999,-53.2648,5.74,79,100,5.81,CA,1637689020
Paamiut,61.994,-49.6678,0.67,53,100,12.64,GL,1637689020
La Ronge,55.1001,-105.2842,-6.86,93,90,5.14,CA,1637689022
Constitución,-35.3333,-72.4167,18.65,69,13,5.08,CL,1637689022
Kambove,-10.8764,26.5969,18.53,92,69,0.87,CD,1637689022
Bambanglipuro,-7.95,110.2833,24.6,93,99,3.63,ID,1637689024
Bathsheba,13.2167,-59.5167,31.34,62,40,7.72,BB,1637689025
Barranca,-10.75,-77.7667,20.9,71,100,4.6,PE,1637688783
Dwārka,22.2394,68.9678,25.85,53,42,3.7,IN,1637689025
Noshiro,40.2039,140.0242,4.24,79,100,4.22,JP,1637689026
Idrinskoye,54.3708,92.1358,-9.02,97,89,1.81,RU,1637689027
Pauini,-7.7136,-66.9764,27.62,86,99,0.88,BR,1637689027
Rosetta,31.4044,30.4164,18.9,65,100,2.68,EG,1637689028
Qaqortoq,60.7167,-46.0333,-5.72,64,91,3.3,GL,1637689028
Socorro,31.6546,-106.3033,16.36,35,90,5.14,US,1637689028
Geraldton,-28.7667,114.6,15.23,82,0,5.66,AU,1637689029
Goundam,16.4145,-3.6708,32.0,19,8,4.52,ML,1637689029
Dutse,11.7594,9.3392,26.7,24,71,0.87,NG,1637689030
Province of Mantua,45.1667,10.7833,11.53,82,26,0.45,IT,1637689030
Øystese,60.3882,6.1925,8.92,99,100,3.05,NO,1637689031
Menongue,-14.6585,17.691,23.05,43,69,2.07,AO,1637689031
Thaba Nchu,-29.2093,26.839,18.88,53,28,4.38,ZA,1637689032
Hobyo,5.3505,48.5268,27.17,71,48,4.54,SO,1637689032
San Cristobal,7.7669,-72.225,25.1,54,77,2.34,VE,1637689033
Moose Factory,51.2585,-80.6094,-7.0,79,90,5.66,CA,1637689033
Kalmunai,7.4167,81.8167,25.12,91,100,3.02,LK,1637689034
Kirkwall,58.9848,-2.9587,10.03,87,75,7.72,GB,1637689034
Kidal,18.4411,1.4078,29.9,21,31,3.1,ML,1637689034
Santa Rosa,14.3122,121.1114,27.99,85,49,4.03,PH,1637689035
Klaksvík,62.2266,-6.589,8.51,86,99,12.06,FO,1637689035
Grand Gaube,-20.0064,57.6608,25.22,83,39,0.45,MU,1637689035
Mossamedes,-15.1961,12.1522,21.87,71,31,3.07,AO,1637689036
Taungdwingyi,20.0167,95.55,22.64,80,2,0.97,MM,1637689036
Semīrom,31.4167,51.5667,5.04,69,0,2.45,IR,1637689037
Yelizavetino,59.4916,29.7938,-2.69,90,18,2.11,RU,1637689037
Creel,27.75,-107.6333,15.69,27,100,5.57,MX,1637689037
Aasiaat,68.7098,-52.8699,-14.77,71,76,10.73,GL,1637689038
Erbil,36.1926,44.0106,14.9,38,0,1.03,IQ,1637689038
Charters Towers,-20.1,146.2667,23.58,87,99,4.48,AU,1637689039
Makakilo City,21.3469,-158.0858,23.49,79,75,2.06,US,1637689039
Lukovetskiy,64.2956,41.9211,-4.01,95,77,3.27,RU,1637689040
Palm Beach,26.6503,-80.4498,22.23,39,0,6.46,US,1637689040
St. George's,12.0564,-61.7485,28.82,79,40,7.72,GD,1637689041
São Filipe,14.8961,-24.4956,27.14,67,64,2.09,CV,1637689041
Saldanha,-33.0117,17.9442,20.03,75,70,13.21,ZA,1637689042
Luanda,-8.8368,13.2343,26.1,81,58,5.55,AO,1637688840
Sinegor'ye,62.0788,150.477,-28.04,93,21,0.74,RU,1637689043
São Sebastião,-23.76,-45.4097,28.59,49,11,0.82,BR,1637689043
Talnakh,69.4865,88.3972,-11.6,92,98,5.57,RU,1637689043
My Tho,10.35,106.35,26.02,96,96,1.07,VN,1637689044
Bairiki Village,1.3292,172.9752,27.0,83,20,3.6,KI,1637689044
Coyhaique,-45.5752,-72.0662,19.97,40,40,3.6,CL,1637689045
Gillette,44.2911,-105.5022,10.57,19,1,9.83,US,1637689045
Sabang,5.8933,95.3214,27.73,77,100,3.52,ID,1637689045
College,64.8569,-147.8028,-17.03,57,75,3.09,US,1637689047
Östersund,63.1792,14.6357,3.25,93,20,8.23,SE,1637689047
Verkhnyaya Inta,65.9811,60.3094,-11.91,95,100,6.62,RU,1637689048
Savannah Bight,16.45,-85.85,29.03,74,66,8.15,HN,1637689048
Zunyi,27.6867,106.9072,7.31,85,100,1.21,CN,1637689049
Peniche,39.3558,-9.3811,13.97,69,12,4.15,PT,1637689049
Cascais,38.6979,-9.4215,14.15,56,20,3.58,PT,1637689049
Tshikapa,-6.4167,20.8,22.7,94,88,1.5,CD,1637689050
Mont-Dore,-22.2833,166.5833,20.99,91,83,2.42,NC,1637689050
Raton,36.9034,-104.4391,20.19,14,1,0.0,US,1637689051
Kangaatsiaq,68.3065,-53.4641,-10.14,68,71,10.95,GL,1637689051
Aswān,24.0934,32.907,22.61,35,0,3.09,EG,1637689052
Half Moon Bay,37.4636,-122.4286,16.09,76,1,1.34,US,1637689052
Lanigan,51.8501,-105.0344,0.94,87,29,3.6,CA,1637689053
Houma,29.5958,-90.7195,16.68,53,1,4.63,US,1637689053
Tottori-shi,35.5,134.2333,8.06,70,74,9.63,JP,1637689054
Dzhebariki-Khaya,62.2167,135.8,-25.77,97,100,1.01,RU,1637689054
Basti,26.8,82.7167,17.11,33,0,2.02,IN,1637689054
Rome,43.2128,-75.4557,0.8,70,75,0.45,US,1637688843
Manzhouli,49.6,117.4333,-18.89,81,0,2.88,CN,1637689055
Wenatchee,47.4235,-120.3103,4.76,86,90,2.57,US,1637689056
Walvis Bay,-22.9575,14.5053,17.53,72,0,4.12,NA,1637689056
Ixtapa,20.7,-105.2,26.57,61,1,0.0,MX,1637689056
Marau,-28.4492,-52.2,30.14,35,100,2.34,BR,1637689057
Richards Bay,-28.783,32.0377,20.23,78,54,7.98,ZA,1637689057
Guinticgan,11.5641,123.1236,27.47,78,91,7.0,PH,1637689058
Inhambane,-23.865,35.3833,24.6,91,83,3.94,MZ,1637689058
Bom Jesus,-9.0744,-44.3586,32.86,42,98,1.39,BR,1637689059
Ola,59.5833,151.2833,-10.71,76,8,7.12,RU,1637689059
Necochea,-38.5473,-58.7368,26.13,26,16,3.29,AR,1637689060
Tevriz,57.509,72.4042,-5.4,90,100,5.06,RU,1637689060
Umm Hājar,13.2954,19.6966,29.09,14,13,4.2,TD,1637689060
Atherton,53.5237,-2.4935,9.05,88,39,0.45,GB,1637689061
Westport,41.1415,-73.3579,6.36,49,20,2.68,US,1637688818
Coquimbo,-29.9533,-71.3436,16.85,72,90,5.66,CL,1637689062
Santa Marta,11.2408,-74.199,31.03,74,75,2.06,CO,1637688936
Shizunai-furukawachō,42.3339,142.3669,3.87,68,100,8.87,JP,1637689062
Souillac,-20.5167,57.5167,25.21,73,40,2.06,MU,1637689063
Makkah al Mukarramah,21.4267,39.8261,24.38,47,5,1.92,SA,1637688910
Karaton,-6.3424,106.1045,27.2,95,100,3.97,ID,1637689063
Samarai,-10.6167,150.6667,28.26,78,24,4.83,PG,1637689064
Tucuruí,-3.7661,-49.6725,35.14,39,73,0.83,BR,1637689064
Kahului,20.8947,-156.47,25.47,80,20,2.57,US,1637689065
Coahuayana Viejo,18.7333,-103.6833,30.71,53,8,2.52,MX,1637689065
Soyo,-6.1349,12.3689,29.03,84,70,3.64,AO,1637689065
Fort Nelson,58.8053,-122.7002,-19.23,84,75,1.03,CA,1637688909
Kokoda,-8.8785,147.7407,22.81,93,50,0.75,PG,1637689066
São Benedito do Rio Preto,-3.3336,-43.5283,32.73,48,85,2.68,BR,1637689067
Sühbaatar,50.2314,106.2078,-15.65,96,85,1.13,MN,1637689067
Tual,-5.6667,132.75,28.37,76,86,2.72,ID,1637689068
Wau,7.7029,27.9953,27.68,25,4,2.15,SS,1637689068
Namatanai,-3.6667,152.4333,26.18,83,63,3.58,PG,1637689069
Calabozo,8.9242,-67.4293,32.89,44,100,3.12,VE,1637689070
Port Blair,11.6667,92.75,27.44,82,100,4.3,IN,1637689070
Balikpapan,-1.2675,116.8289,24.42,91,91,1.33,ID,1637689071
Boshan,36.4833,117.8333,0.39,49,0,3.06,CN,1637689071
Adwa,14.1646,38.8955,18.19,52,72,2.23,ET,1637689072
Ucluelet,48.9329,-125.5528,6.09,92,10,1.34,CA,1637688791
Lopatino,52.6195,45.8118,-15.71,99,91,1.83,RU,1637689073
Oksbøl,55.6268,8.2876,7.73,91,58,8.78,DK,1637689073
Taoudenni,22.6783,-3.9836,30.0,25,74,2.35,ML,1637689074
Pisco,-13.7,-76.2167,21.03,73,0,4.12,PE,1637688836
Poli,-3.3333,36.8,19.94,51,87,2.38,TZ,1637689075
Tilichiki,60.4667,166.1,-17.77,88,80,4.38,RU,1637689075
Casper,42.8666,-106.3131,13.34,17,1,12.96,US,1637689059
Tula,54.2044,37.6111,-8.13,85,8,1.8,RU,1637689075
Chapais,49.7834,-74.8492,-7.12,82,100,4.44,CA,1637689076
Lubango,-14.9172,13.4925,18.29,62,64,2.75,AO,1637689076
Kaduqli,11.0167,29.7167,25.95,20,72,3.93,SD,1637689077
Winsum,53.33,6.5208,8.32,95,96,3.62,NL,1637689077
Ilulissat,69.2167,-51.1,-11.99,56,75,2.06,GL,1637689078
Quatre Cocos,-20.2078,57.7625,25.06,74,43,3.16,MU,1637689078
Guerrero Negro,27.9769,-114.0611,22.21,52,67,3.92,MX,1637688793
Lagan,45.3929,47.3707,9.84,74,100,3.02,RU,1637689079
Bhatkal,13.9667,74.5667,26.39,84,65,2.23,IN,1637689079
San Miguel de Tucumán,-26.8241,-65.2226,19.0,100,90,3.6,AR,1637689079
Forsytheganj,52.6333,29.7333,-2.75,94,99,1.62,BY,1637689080
Kapenguria,1.2511,35.0895,16.8,46,47,1.33,KE,1637689080
Mookane,-23.688,26.6595,24.52,21,1,2.71,BW,1637689081
Nouadhibou,20.931,-17.0347,29.99,45,93,4.63,MR,1637689081
Gamba,-2.65,10.0,23.98,85,100,1.24,GA,1637689081
Kodinsk,58.6881,99.1844,-8.43,95,86,2.23,RU,1637689082
Shimoda,34.6667,138.95,7.84,61,0,13.21,JP,1637689082
Santiago del Estero,-27.7951,-64.2615,26.25,58,97,1.4,AR,1637689083
Ostrovnoy,68.0531,39.5131,-8.73,90,97,3.38,RU,1637689083
Nantucket,41.2835,-70.0995,6.06,56,90,8.75,US,1637689084
Uyemskiy,64.4743,40.8524,-3.97,93,90,4.0,RU,1637689084
Shaunavon,49.6501,-108.4181,1.88,57,76,4.22,CA,1637689085
Arroyo de la Encomienda,41.6096,-4.7969,5.96,91,90,5.66,ES,1637689085
Saurimo,-9.6608,20.3916,21.92,81,95,2.06,AO,1637689086
Ilabaya,-17.4208,-70.5133,23.26,41,100,4.68,PE,1637689086
Zaysan,47.4667,84.8667,-1.3,83,100,0.87,KZ,1637689086
Paharpur,32.1038,70.9724,18.8,15,1,1.19,PK,1637689087
Twentynine Palms,34.1356,-116.0542,22.81,16,100,1.38,US,1637689087
Pevek,69.7008,170.3133,-28.84,99,50,1.36,RU,1637689088
Grand-Lahou,5.1367,-5.0242,27.21,79,22,3.88,CI,1637689088
Nezhinka,51.7676,55.3694,-6.91,93,75,1.0,RU,1637689089
Escanaba,45.7453,-87.0646,1.63,73,1,3.6,US,1637689089
Cockburn Town,21.4612,-71.1419,27.57,72,59,5.68,TC,1637688859
Skibbereen,51.55,-9.2667,3.89,69,12,1.38,IE,1637689090
Camopi,3.1655,-52.3158,32.65,45,76,1.51,GF,1637689091
Korla,41.7597,86.1469,-1.82,57,7,0.72,CN,1637689091
Killybegs,54.6333,-8.45,8.84,80,67,5.44,IE,1637689092
Port Hedland,-20.3167,118.5667,26.03,78,96,3.09,AU,1637689092
Ambilobe,-13.2,49.05,24.46,83,64,1.52,MG,1637689093
High Level,58.5169,-117.136,-16.94,78,90,6.17,CA,1637689094
Lasem,-6.6922,111.4527,25.16,91,100,4.05,ID,1637689094
Mporokoso,-9.3727,30.125,18.79,85,91,1.45,ZM,1637689095
Klyuchi,52.2667,79.1667,-1.74,85,87,7.52,RU,1637689095
Vao,-22.6667,167.4833,23.24,76,92,4.4,NC,1637689095
Sumter,28.7086,-82.0831,18.47,60,0,5.26,US,1637689096
Anito,12.4497,125.2886,25.45,90,91,3.61,PH,1637689096
Cervo,43.6702,-7.4101,11.65,80,100,9.26,ES,1637689097
Kieta,-6.2167,155.6333,26.47,84,96,1.69,PG,1637689097
Fare,-16.7,-151.0167,26.64,73,91,1.48,PF,1637689097
Saint-Joseph,-21.3667,55.6167,24.21,77,54,2.74,RE,1637689098
Bac Lieu,9.285,105.7244,25.66,86,67,6.67,VN,1637689098
Arlit,18.7369,7.3853,28.89,14,14,3.33,NE,1637689099
Eydhafushi,5.1033,73.0708,27.45,72,90,6.63,MV,1637689099
Esperance,-33.8667,121.9,13.91,71,60,3.01,AU,1637689096
Sterling,39.0062,-77.4286,7.0,47,40,0.45,US,1637689100
Broken Hill,-31.95,141.4333,21.84,64,75,4.12,AU,1637689101
Beringovskiy,63.05,179.3167,-22.0,88,18,4.1,RU,1637689101
Prudentópolis,-25.2131,-50.9778,33.45,20,21,1.66,BR,1637689101
Tautira,-17.7333,-149.15,29.01,75,77,0.79,PF,1637689102
Kologriv,58.8275,44.3178,-11.05,93,60,2.38,RU,1637689102
Yelizovo,53.1873,158.3805,-2.92,80,75,1.0,RU,1637689103
Andreapol',56.6513,32.2664,-4.0,51,23,3.39,RU,1637689103
Poya,-21.35,165.15,23.99,88,93,2.51,NC,1637689104
Birao,10.2849,22.7882,25.17,23,43,2.74,CF,1637689104
Tessalit,20.1986,1.0114,28.05,24,94,3.76,ML,1637688983
Kaeo,-35.1,173.7833,16.29,96,92,2.58,NZ,1637689105
Angoche,-16.2325,39.9086,26.83,80,81,6.5,MZ,1637689105
Altar,30.7,-111.8167,25.29,26,98,4.4,MX,1637689106
Shingū,33.7333,135.9833,9.24,72,15,6.03,JP,1637689107
Kununurra,-15.7667,128.7333,25.99,94,90,0.51,AU,1637689107
Tyukalinsk,55.8732,72.1967,-6.73,90,100,7.52,RU,1637689107
Skellefteå,64.7507,20.9528,0.2,69,75,3.09,SE,1637689108
Wajir,1.7471,40.0573,29.8,47,66,4.2,KE,1637689108
Susanville,40.4163,-120.653,8.94,64,19,2.24,US,1637689109
Abu Samrah,35.3029,37.1841,15.87,52,12,2.4,SY,1637689109
Ubari,26.5921,12.7805,21.45,25,99,2.2,LY,1637689110
Zonguldak,41.25,31.8333,8.75,90,100,0.44,TR,1637689110
Kruisfontein,-34.0033,24.7314,15.49,77,78,2.63,ZA,1637689111
Maragogi,-9.0122,-35.2225,29.24,62,59,5.51,BR,1637689112
Carlyle,38.6103,-89.3726,7.38,46,29,3.13,US,1637689112
Omsukchan,62.5333,155.8,-24.92,92,47,0.95,RU,1637689112
Husavik,66.0449,-17.3389,-0.05,81,100,4.28,IS,1637689113
Río Gallegos,-51.6226,-69.2181,16.03,33,40,18.01,AR,1637689113
Ulladulla,-35.35,150.4667,17.65,92,100,1.34,AU,1637688860
Bhiwandi,19.3,73.0667,28.92,77,60,1.15,IN,1637689114
Wellington,-41.2866,174.7756,11.81,87,11,2.57,NZ,1637688998
Miraflores,19.2167,-98.8083,19.42,59,75,1.21,MX,1637689114
Darhan,49.4867,105.9228,-13.25,92,22,2.08,MN,1637689115
Morondava,-20.2833,44.2833,26.44,81,98,2.7,MG,1637689115
Codrington,-38.2667,141.9667,13.57,96,100,2.46,AU,1637689116
Bozhou,33.8772,115.7703,4.72,47,0,3.53,CN,1637689117
Ardabil,38.2498,48.2933,7.58,60,0,4.44,IR,1637689118
Puerto Lumbreras,37.5633,-1.8097,11.73,60,21,0.36,ES,1637689118
Broome,42.2506,-75.833,2.06,66,90,2.24,US,1637689119
Thap Than,15.4606,99.8917,23.58,88,92,1.08,TH,1637689119
Kāzerūn,29.6195,51.6541,17.04,69,1,1.27,IR,1637689120
Teya,60.3778,92.6267,-6.64,95,100,1.58,RU,1637689120
Jieshou,33.2634,115.3611,5.39,48,0,3.83,CN,1637689121
Warrington,53.3925,-2.5802,9.37,90,90,0.89,GB,1637689121
Vizinga,61.0749,50.1031,-6.32,92,100,4.23,RU,1637689122
Inuvik,68.3499,-133.7218,-21.44,77,90,1.03,CA,1637689122
Mitchell,43.7094,-98.0298,14.3,36,1,6.71,US,1637689121
Morón,-34.6534,-58.6198,28.34,26,0,2.68,AR,1637689123
Anchorage,61.2181,-149.9003,-12.62,85,90,0.0,US,1637689067
Snåase,64.2457,12.3778,4.67,98,100,6.74,NO,1637689124
Dhidhdhoo,6.8833,73.1,27.49,75,98,5.73,MV,1637689124
Comodoro Rivadavia,-45.8667,-67.5,27.92,21,0,13.89,AR,1637689124
Laguna,38.421,-121.4238,17.91,77,75,0.0,US,1637689125
Sundarnagar,31.5333,76.8833,12.6,39,0,2.24,IN,1637689125
Verāval,20.9,70.3667,26.61,68,100,3.17,IN,1637689126
Gari,59.4307,62.3497,-10.82,89,96,2.66,RU,1637689126
Dhubri,26.0333,89.9667,19.08,75,0,2.6,IN,1637689127
Kyzyl-Suu,42.3414,78.0056,-0.38,41,1,3.6,KG,1637689127
Neiafu,-18.65,-173.9833,23.38,94,20,0.0,TO,1637689128
Arequipa,-16.3989,-71.535,22.04,21,40,5.66,PE,1637688920
Locri,38.2414,16.2623,17.68,79,74,1.24,IT,1637689128
Tolaga Bay,-38.3667,178.3,13.09,86,84,4.49,NZ,1637689128
